[
  {
    "id": "e4f2a1b0-1c9d-4e8a-9f3b-2c7d5e6a8b1c",
    "type": "Restaurant",
    "name": "The Green Leaf Cafe",
    "description": "A cozy cafe with organic coffee and vegan pastries.",
    "location": {
      "latitude": 40.7128,
      "longitude": -74.0060,
      "city": "New York",
      "state": "NY"
    },
    "rating": 4.5,
    "cuisineType": "Cafe",
    "priceRange": "$$",
    "openingHours": "8:00 AM - 6:00 PM",
    "sourceApi": "local_json",
    "apiSpecificId": "e4f2a1b0-1c9d-4e8a-9f3b-2c7d5e6a8b1c"
  },
  {
    "id": "a1b2c3d4-e5f6-7890-1234-567890abcdef",
    "type": "Park",
    "name": "Willow Creek Park",
    "description": "A large park with a playground and walking trails.",
    "location": {
      "latitude": 40.7306,
      "longitude": -73.9352,
      "city": "New York",
      "state": "NY"
    },
    "rating": 4.8,
    "parkType": "City Park",
    "amenities": ["playground", "walking trails", "pond", "dog friendly"],
    "area": "25 acres",
    "sourceApi": "local_json",
    "apiSpecificId": "a1b2c3d4-e5f6-7890-1234-567890abcdef"
  },
  {
    "id": "f0e1d2c3-b4a5-6789-0123-456789abcdef",
    "type": "Event",
    "name": "Summer Music Fest",
    "description": "Annual music festival featuring local bands. Runs through August.",
    "location": {
      "latitude": 40.7484,
      "longitude": -73.9857,
      "city": "New York",
      "state": "NY"
    },
    "rating": 4.2,
    "eventType": "Music Festival",
    "startDate": "2024-08-15T18:00:00Z",
    "endDate": "2024-08-17T23:00:00Z",
    "ticketPrice": 25.00,
    "organizer": "NYC Events Co.",
    "sourceApi": "local_json",
    "apiSpecificId": "f0e1d2c3-b4a5-6789-0123-456789abcdef"
  },
  {
    "id": "12345678-abcd-efgh-ijkl-mnopqrstuvwx",
    "type": "Restaurant",
    "name": "Pizzeria Roma",
    "description": "Authentic Italian pizza with a wood-fired oven. Great for families.",
    "location": {
      "latitude": 40.7550,
      "longitude": -73.9990,
      "city": "New York",
      "state": "NY"
    },
    "rating": 4.9,
    "cuisineType": "Italian",
    "priceRange": "$$$",
    "openingHours": "11:00 AM - 10:00 PM",
    "sourceApi": "local_json",
    "apiSpecificId": "12345678-abcd-efgh-ijkl-mnopqrstuvwx"
  },
  {
    "id": "fedcba98-7654-3210-fedc-ba9876543210",
    "type": "Event",
    "name": "Farmer's Market",
    "description": "Weekly market with fresh produce, local honey, and handmade crafts.",
    "location": {
      "latitude": 40.7128,
      "longitude": -74.0060,
      "city": "New York",
      "state": "NY"
    },
    "rating": 4.6,
    "eventType": "Market",
    "startDate": "2024-10-26T09:00:00Z",
    "endDate": "2024-10-26T15:00:00Z",
    "ticketPrice": 0,
    "organizer": "Local Farmers Association",
    "sourceApi": "local_json",
    "apiSpecificId": "fedcba98-7654-3210-fedc-ba9876543210"
  },
  {
    "id": "550e8400-e29b-41d4-a716-446655440000",
    "type": "Park",
    "name": "Riverside Gardens",
    "description": "Beautiful botanical gardens along the river, perfect for a quiet stroll.",
    "location": {
      "latitude": 40.7796,
      "longitude": -73.9632,
      "city": "New York",
      "state": "NY"
    },
    "rating": 4.7,
    "parkType": "Botanical Garden",
    "amenities": ["botanical gardens", "river view", "benches"],
    "area": "15 acres",
    "sourceApi": "local_json",
    "apiSpecificId": "550e8400-e29b-41d4-a716-446655440000"
  }
]